omm_id,nombre,elev,lat_dec,lon_dec,fecha_desde,fecha_hasta,valor
87118,Famaillá INTA,363.0,-27.05,-65.42,2024-03-21,2024-04-20,
87131,La María INTA,169.0,-28.23,-64.15,2024-03-21,2024-04-20,
87144,Las Breñas INTA,102.0,-27.08,-61.12,2024-03-21,2024-04-20,
87147,Pres. Roque Sáenz Peña INTA,90.0,-26.87,-60.45,2024-03-21,2024-04-20,
87158,Colonia Benítez INTA,54.0,-27.42,-58.93,2024-03-21,2024-04-20,
87180,Cerro Azul INTA,270.0,-27.65,-55.43,2024-03-21,2024-04-20,
87276,Bella Vista INTA,70.0,-28.43,-58.92,2024-03-21,2024-04-20,
87283,Mercedes INTA (Ctes.),100.0,-29.17,-58.02,2024-03-21,2024-04-20,
87359,Rafaela INTA,100.0,-31.18,-61.55,2024-03-21,2024-04-20,
87016,Orán Aero,357.0,-23.154692,-64.328145,2024-03-21,2024-04-20,108.6
87022,Tartagal Aero,450.0,-22.616578,-63.79653,2024-03-21,2024-04-20,54.6
87043,Jujuy Univ. Nac.,1302.0,-24.178606,-65.326328,2024-03-21,2024-04-20,82.9
87046,Jujuy Aero,905.0,-24.383964,-65.095506,2024-03-21,2024-04-20,98.9
87047,Salta Aero,1221.0,-24.844345,-65.475748,2024-03-21,2024-04-20,57.6
87050,Metán,855.0,-25.524295,-64.972951,2024-03-21,2024-04-20,87.0
87065,Rivadavia,205.0,-24.18532,-62.886631,2024-03-21,2024-04-20,189.0
87078,Las Lomitas,130.0,-24.702449,-60.594107,2024-03-21,2024-04-20,175.5
87097,Iguazú Aero,270.0,-25.73087,-54.477454,2024-03-21,2024-04-20,109.0
87129,Santiago del Estero Aero,199.0,-27.754814,-64.299802,2024-03-21,2024-04-20,39.4
87148,Pres. Roque Sáenz Peña Aero,93.0,-26.746374,-60.486783,2024-03-21,2024-04-20,156.1
87155,Resistencia Aero,52.0,-27.438882,-59.04602,2024-03-21,2024-04-20,267.2
87162,Formosa Aero,60.0,-26.212423,-58.229292,2024-03-21,2024-04-20,234.5
87163,Bernardo de Irigoyen Aero,815.0,-26.27788,-53.671276,2024-03-21,2024-04-20,200.3
87166,Corrientes Aero,62.0,-27.449794,-58.759744,2024-03-21,2024-04-20,307.5
87173,Ituzaingó,72.0,-27.585649,-56.677247,2024-03-21,2024-04-20,262.0
87178,Posadas Aero,125.0,-27.391,-55.967048,2024-03-21,2024-04-20,248.2
87187,Oberá Aero,303.0,-27.48372,-55.131714,2024-03-21,2024-04-20,
87211,Tinogasta,1201.0,-28.067251,-67.56526,2024-03-21,2024-04-20,2.0
87213,Chilecito Aero,945.0,-29.218362,-67.442488,2024-03-21,2024-04-20,10.5
87217,La Rioja Aero,429.0,-29.382465,-66.793303,2024-03-21,2024-04-20,18.1
87222,Catamarca Aero,454.0,-28.593482,-65.755284,2024-03-21,2024-04-20,31.5
87244,Villa María del Río Seco,341.0,-29.905806,-63.727586,2024-03-21,2024-04-20,168.2
87257,Ceres Aero,88.0,-29.875559,-61.936045,2024-03-21,2024-04-20,179.70000000000002
87270,Reconquista Aero,53.0,-29.205082,-59.693383,2024-03-21,2024-04-20,71.0
87281,Mercedes Aero (Ctes.),107.0,-29.225988,-58.085678,2024-03-21,2024-04-20,187.5
87289,Paso de los Libres Aero,70.0,-29.689311,-57.148494,2024-03-21,2024-04-20,240.3
87305,Jáchal,1175.0,-30.229382,-68.739003,2024-03-21,2024-04-20,
87311,San Juan Aero,598.0,-31.574619,-68.422402,2024-03-21,2024-04-20,25.5
87320,Chamical Aero,461.0,-30.347763,-66.296717,2024-03-21,2024-04-20,37.5
87322,Chepes,658.0,-31.331643,-66.588575,2024-03-21,2024-04-20,8.0
87328,Villa Dolores Aero,569.0,-31.951295,-65.14904,2024-03-21,2024-04-20,96.3
87344,Córdoba Aero,474.0,-31.29663,-64.211853,2024-03-21,2024-04-20,128.4
87345,Córdoba Obs.,426.0,-31.420759,-64.198276,2024-03-21,2024-04-20,113.3
87349,Pilar Obs.,338.0,-31.668086,-63.881997,2024-03-21,2024-04-20,95.3
87356,Sunchales Aero,92.0,-30.956774,-61.532292,2024-03-21,2024-04-20,110.7
87360,Rafaela Aero,59.0,-31.277506,-61.509541,2024-03-21,2024-04-20,106.0
87371,Sauce Viejo Aero,18.0,-31.707804,-60.80532,2024-03-21,2024-04-20,176.9
87373,Paraná INTA,110.0,-31.83,-60.52,2024-03-21,2024-04-20,
87417,La Consulta INTA,940.0,-33.73,-69.12,2024-03-21,2024-04-20,
87466,Marcos Juárez INTA,110.0,-32.68,-62.12,2024-03-21,2024-04-20,
87472,Oliveros INTA,26.0,-32.55,-60.85,2024-03-21,2024-04-20,
87484,Pergamino INTA,65.0,-33.93,-60.55,2024-03-21,2024-04-20,
87494,San Pedro INTA,28.0,-33.68,-59.68,2024-03-21,2024-04-20,
87537,General Villegas INTA,117.0,-34.92,-62.73,2024-03-21,2024-04-20,
87575,Castelar INTA,22.0,-34.67,-58.65,2024-03-21,2024-04-20,
87624,Anguil INTA,165.0,-36.5,-63.98,2024-03-21,2024-04-20,
87393,Monte Caseros Aero,54.0,-30.261717,-57.639001,2024-03-21,2024-04-20,144.8
87395,Concordia Aero,38.0,-31.302234,-58.001472,2024-03-21,2024-04-20,191.7
87405,Uspallata,1891.0,-32.594593,-69.340076,2024-03-21,2024-04-20,17.1
87412,San Carlos (Mza.),940.0,-33.774744,-69.042609,2024-03-21,2024-04-20,
87416,San Martín (Mza.),653.0,-33.073248,-68.464887,2024-03-21,2024-04-20,13.1
87418,Mendoza Aero,704.0,-32.843748,-68.796314,2024-03-21,2024-04-20,24.7
87420,Mendoza Obs.,827.0,-32.894764,-68.872824,2024-03-21,2024-04-20,15.0
87436,San Luis Aero,713.0,-33.274528,-66.35139,2024-03-21,2024-04-20,35.0
87444,Santa Rosa de Conlara Aero,620.0,-32.378994,-65.179922,2024-03-21,2024-04-20,35.5
87448,Villa Reynolds Aero,486.0,-33.718142,-65.373691,2024-03-21,2024-04-20,53.0
87453,Río Cuarto Aero,421.0,-33.0955,-64.276973,2024-03-21,2024-04-20,63.7
87467,Marcos Juárez Aero,114.0,-32.679697,-62.150513,2024-03-21,2024-04-20,174.0
87468,Venado Tuerto,113.0,-33.682263,-61.961364,2024-03-21,2024-04-20,146.79999999999998
87470,El Trébol,96.0,-32.192149,-61.711967,2024-03-21,2024-04-20,
87480,Rosario Aero,25.0,-32.918543,-60.781451,2024-03-21,2024-04-20,142.6
87497,Gualeguaychú Aero,21.0,-33.012454,-58.610763,2024-03-21,2024-04-20,184.7
87506,Malargüe Aero,1425.0,-35.48129,-69.58338,2024-03-21,2024-04-20,18.2
87509,San Rafael Aero,748.0,-34.590821,-68.401665,2024-03-21,2024-04-20,71.5
87532,General Pico Aero,145.0,-35.68815,-63.759457,2024-03-21,2024-04-20,94.2
87534,Laboulaye Aero,137.0,-34.127844,-63.367634,2024-03-21,2024-04-20,96.10000000000001
87540,Trenque Lauquen,95.0,-35.969007,-62.726111,2024-03-21,2024-04-20,100.1
87544,Pehuajó Aero,87.0,-35.840703,-61.859783,2024-03-21,2024-04-20,153.3
87548,Junín Aero,81.0,-34.552507,-60.931269,2024-03-21,2024-04-20,238.9
87550,Nueve de Julio,76.0,-35.438985,-60.881913,2024-03-21,2024-04-20,190.0
87553,San Fernando,10.0,-34.455025,-58.584487,2024-03-21,2024-04-20,108.0
87571,El Palomar Aero,12.0,-34.603038,-58.612579,2024-03-21,2024-04-20,77.6
87573,Merlo Aero,36.0,-34.684682,-58.744759,2024-03-21,2024-04-20,100.1
87574,Morón Aero,24.0,-34.671151,-58.638208,2024-03-21,2024-04-20,78.8
87576,Ezeiza Aero,20.0,-34.81856,-58.542289,2024-03-21,2024-04-20,98.2
87582,Aeroparque Buenos Aires,6.0,-34.558909,-58.419823,2024-03-21,2024-04-20,98.4
87585,Buenos Aires,25.0,-34.590222,-58.483968,2024-03-21,2024-04-20,129.7
87593,La Plata Aero,19.0,-34.966141,-57.896083,2024-03-21,2024-04-20,122.9
87596,Punta Indio (BA),22.0,-35.351178,-57.292537,2024-03-21,2024-04-20,128.0
87616,Victorica,312.0,-36.212635,-65.431667,2024-03-21,2024-04-20,
87623,Santa Rosa Aero,191.0,-36.593207,-64.279985,2024-03-21,2024-04-20,157.1
87637,Coronel Suárez Aero,233.0,-37.453338,-61.890716,2024-03-21,2024-04-20,96.8
87686,Barrow INTA,120.0,-38.32,-60.25,2024-03-21,2024-04-20,
87691,Balcarce INTA,130.0,-37.75,-58.3,2024-03-21,2024-04-20,
87741,Hilario Ascasubi INTA,22.0,-39.38,-62.62,2024-03-21,2024-04-20,
83423,Goiânia,748.53,-16.67305554,-49.26388888,2024-03-21,2024-04-20,264.3
9987003,Concordia INTA,48.0,-31.37,-58.12,2024-03-21,2024-04-20,
87641,Azul Aero,147.0,-36.832021,-59.886351,2024-03-21,2024-04-20,107.7
87643,Olavarría Aero,166.0,-36.890581,-60.222799,2024-03-21,2024-04-20,76.6
87645,Tandil Aero,175.0,-37.241166,-59.233233,2024-03-21,2024-04-20,51.8
87648,Dolores Aero,9.0,-36.316945,-57.716865,2024-03-21,2024-04-20,100.8
87649,Benito Juárez Aero,207.0,-37.701292,-59.791059,2024-03-21,2024-04-20,69.0
87663,Villa Gesell Aero,9.0,-37.23532,-57.018754,2024-03-21,2024-04-20,125.5
87679,Pigüé Aero,304.0,-37.6082,-62.386473,2024-03-21,2024-04-20,108.5
87683,Coronel Pringles Aero,247.0,-38.004311,-61.329961,2024-03-21,2024-04-20,
87688,Tres Arroyos,115.0,-38.35947,-60.284537,2024-03-21,2024-04-20,85.9
87692,Mar del Plata Aero,21.0,-37.932096,-57.581453,2024-03-21,2024-04-20,45.9
87715,Neuquén Aero,271.0,-38.952008,-68.136675,2024-03-21,2024-04-20,11.5
87719,Cipolletti,265.0,-38.941213,-67.978496,2024-03-21,2024-04-20,15.0
87736,Río Colorado,79.0,-38.991078,-64.087167,2024-03-21,2024-04-20,
87750,Bahía Blanca,83.0,-38.714736,-62.163042,2024-03-21,2024-04-20,88.6
87761,Chapelco Aero,779.0,-40.080534,-71.144188,2024-03-21,2024-04-20,21.3
87765,Bariloche Aero,840.0,-41.147484,-71.164298,2024-03-21,2024-04-20,38.0
87774,Maquinchao,888.0,-41.243899,-68.706484,2024-03-21,2024-04-20,3.6
87784,San Antonio Oeste Aero,20.0,-40.757158,-65.030935,2024-03-21,2024-04-20,27.8
87791,Viedma Aero,7.0,-40.86351,-63.006981,2024-03-21,2024-04-20,70.10000000000001
87800,El Bolsón Aero,337.0,-41.954068,-71.533944,2024-03-21,2024-04-20,39.0
87803,Esquel Aero,797.0,-42.905879,-71.145004,2024-03-21,2024-04-20,22.3
87814,Paso de Indios,460.0,-43.861786,-69.047428,2024-03-21,2024-04-20,1.1
87823,Puerto Madryn Aero,136.0,-42.755516,-65.101544,2024-03-21,2024-04-20,49.400000000000006
87828,Trelew Aero,43.0,-43.208936,-65.282087,2024-03-21,2024-04-20,59.5
87852,Perito Moreno Aero,429.0,-46.538022,-70.985341,2024-03-21,2024-04-20,5.0
87860,Comodoro Rivadavia Aero,46.0,-45.792298,-67.461942,2024-03-21,2024-04-20,12.3
87880,Gobernador Gregores Aero,357.0,-48.78237,-70.162683,2024-03-21,2024-04-20,2.0
87896,Puerto Deseado Aero,80.0,-47.733733,-65.907814,2024-03-21,2024-04-20,11.5
87904,El Calafate Aero,204.0,-50.284551,-72.051486,2024-03-21,2024-04-20,7.0
87909,San Julián Aero,62.0,-49.308199,-67.803187,2024-03-21,2024-04-20,4.0
87912,Puerto Santa Cruz Aero,111.0,-50.021752,-68.578876,2024-03-21,2024-04-20,0.4
87925,Río Gallegos Aero,19.0,-51.611559,-69.307984,2024-03-21,2024-04-20,30.0
87938,Ushuaia Aero,57.0,-54.840053,-68.303423,2024-03-21,2024-04-20,25.2
9987010,Reconquista INTA,42.0,-29.183,-59.866,2024-03-21,2024-04-20,
9987012,Zavalla U.N. Rosario,50.0,-33.02,-60.88,2024-03-21,2024-04-20,
9987013,Capilla del Monte INTA,984.0,-30.86,-64.52,2024-03-21,2024-04-20,
85033,Guayaramerin - Aeropuerto,130.0,-10.82,-65.35,2024-03-21,2024-04-20,
85043,Riberalta - Aeropuerto,141.0,-11.01,-66.08,2024-03-21,2024-04-20,
85104,San Joaquin - Aeropuerto,139.0,-13.05,-64.67,2024-03-21,2024-04-20,
85109,San Ramon - Aeropuerto,139.0,-13.26,-64.61,2024-03-21,2024-04-20,
85114,Magdalena - Aeropuerto,141.0,-13.26,-64.06,2024-03-21,2024-04-20,
85123,Santa Ana de Yacuma - Aerop,144.0,-13.76,-65.43,2024-03-21,2024-04-20,
85140,Reyes,280.0,-14.3,-67.35,2024-03-21,2024-04-20,
85141,Rurrenabaque - Aeropuerto,204.0,-14.43,-67.5,2024-03-21,2024-04-20,
85152,San Borja - Aeropuerto,194.0,-14.86,-66.74,2024-03-21,2024-04-20,
85153,San Ignacio de Moxos - Aerop,160.0,-14.97,-65.63,2024-03-21,2024-04-20,
85154,Trinidad - Aeropuerto,156.0,-14.82,-64.92,2024-03-21,2024-04-20,
85175,Ascención de Guarayos - Aerop,236.0,-15.92,-63.17,2024-03-21,2024-04-20,
85195,San Javier - Aeropuerto,538.0,-16.27,-62.47,2024-03-21,2024-04-20,
85196,Concepción - Aeropuerto,504.0,-16.14,-62.03,2024-03-21,2024-04-20,
85201,El Alto - Aeropuerto,4034.0,-16.51,-68.2,2024-03-21,2024-04-20,
85207,San Ignacio de Velasco - Aerop,415.0,-16.38,-60.96,2024-03-21,2024-04-20,
85210,San Matias - Aeropuerto,285.0,-16.33,-58.4,2024-03-21,2024-04-20,
85223,Cochabamba - Aeropuerto,2548.0,-17.42,-66.17,2024-03-21,2024-04-20,
85242,Oruro - Aeropuerto,3702.0,-17.95,-67.08,2024-03-21,2024-04-20,
85244,Viru Viru - Aeropuerto,378.0,-17.65,-63.14,2024-03-21,2024-04-20,
85245,El Trompillo - Aeropuerto,413.0,-17.81,-63.18,2024-03-21,2024-04-20,
85247,San Jose de Chiquitos - Aerop,284.0,-17.83,-60.74,2024-03-21,2024-04-20,
85264,Valle Grande - Aeropuerto,2030.0,-18.48,-64.11,2024-03-21,2024-04-20,
85268,Robore - Aeropuerto,277.0,-18.33,-59.76,2024-03-21,2024-04-20,
85283,Sucre - Aeropuerto,2907.0,-19.02,-65.29,2024-03-21,2024-04-20,
85289,Puerto Suarez - Aeropuerto,234.0,-18.98,-57.82,2024-03-21,2024-04-20,
85293,Potosi - Aeropuerto,4100.0,-19.54,-65.72,2024-03-21,2024-04-20,
85312,Monteagudo_El Bañado-Aerop,1117.0,-19.82,-63.96,2024-03-21,2024-04-20,
85315,Camiri - Aeropuerto,810.0,-20.01,-63.53,2024-03-21,2024-04-20,
85345,Villa Montes - Aeropuerto,360.0,-21.25,-63.41,2024-03-21,2024-04-20,
85364,Tarija - Aeropuerto,1875.0,-21.55,-64.71,2024-03-21,2024-04-20,
85365,Yacuiba - Aeropuerto,580.0,-21.97,-63.65,2024-03-21,2024-04-20,
85394,Bermejo - Aeropuerto,385.0,-22.77,-64.31,2024-03-21,2024-04-20,
86086,Puerto Casado,78.0,-22.28,-57.94,2024-03-21,2024-04-20,
86330,Artigas,120.38,-30.4,-56.51,2024-03-21,2024-04-20,181.7
86350,Rivera,241.94,-30.9,-55.54,2024-03-21,2024-04-20,221.5
86360,Salto,41.0,-31.43,-57.98,2024-03-21,2024-04-20,160.4
86430,Paysandú,61.12,-32.35,-58.04,2024-03-21,2024-04-20,232.0
86440,Melo,100.36,-32.37,-54.19,2024-03-21,2024-04-20,84.9
86033,Bahía Negra,82.0,-20.23,-58.17,2024-03-21,2024-04-20,
86065,Base Aérea “Tte. 2º de Mna. Pelayo Prats Gill” ,206.0,-22.56,-61.61,2024-03-21,2024-04-20,
86068,Aeropuerto de Mcal. José Félix Estigarribia,167.0,-22.03,-60.62,2024-03-21,2024-04-20,188.1
86097,Aeródromo de Pedro Juan Caballero,563.0,-22.64,-55.83,2024-03-21,2024-04-20,68.2
86128,Pozo Colorado,98.0,-23.5,-58.79,2024-03-21,2024-04-20,113.5
86134,Aeródromo de Concepción ,75.0,-23.44,-57.43,2024-03-21,2024-04-20,225.70000000000002
86170,Gral. José María Bruguez,89.0,-24.74,-58.84,2024-03-21,2024-04-20,170.5
86185,Aeródromo de San Pedro del Ycuá Mandyju ,81.0,-24.09,-57.09,2024-03-21,2024-04-20,192.9
86192,San Estanislao,183.0,-24.67,-56.45,2024-03-21,2024-04-20,240.8
86210,Aeródromo de Salto del Guairá,297.0,-24.03,-54.35,2024-03-21,2024-04-20,81.2
86218,Aeropuerto “Silvio Pettirossi”,83.0,-25.24,-57.52,2024-03-21,2024-04-20,236.9
86221,Paraguarí,116.0,-25.63,-57.15,2024-03-21,2024-04-20,317.2
86255,Aeródromo de Pilar,58.0,-26.881,-58.318,2024-03-21,2024-04-20,218.5
86234,Coronel Oviedo,159.0,-25.52,-56.41,2024-03-21,2024-04-20,204.9
86260,San Juan Bautista,131.0,-26.67,-57.13,2024-03-21,2024-04-20,505.9
86268,Aeródromo de Caazapá,142.0,-26.17,-56.36,2024-03-21,2024-04-20,247.8
86285,Capitán Meza,263.0,-26.83,-55.33,2024-03-21,2024-04-20,
85406,"Chacalluta, Arica Ap.",63.0,-18.35138889,-70.33583333,2024-03-21,2024-04-20,0.0
86297,Encarnación,90.0,-27.3,-55.9,2024-03-21,2024-04-20,181.9
86233,Villarrica del Espíritu Santo ,163.0,-25.754,-56.438,2024-03-21,2024-04-20,327.9
83980,Bagé,245.66,-31.30555555,-54.11944443,2024-03-21,2024-04-20,134.3
83997,Santa Vitória do Palmar,24.01,-33.53166666,-53.35027777,2024-03-21,2024-04-20,
86460,Paso de los Toros,75.48,-32.8,-56.53,2024-03-21,2024-04-20,
86490,Mercedes,17.01,-33.25,-58.07,2024-03-21,2024-04-20,170.8
86560,Colonia,18.0,-34.45,-57.77,2024-03-21,2024-04-20,86.9
86565,Rocha,18.16,-34.49,-54.31,2024-03-21,2024-04-20,55.9
86580,Aeropuerto Carrasco,32.88,-34.83,-56.01,2024-03-21,2024-04-20,95.0
86450,Young,80.6,-32.69,-57.65,2024-03-21,2024-04-20,227.5
86530,Durazno,92.8,-33.35,-56.5,2024-03-21,2024-04-20,173.2
86545,Florida,90.0,-34.09,-56.24,2024-03-21,2024-04-20,126.6
85921,"Teniente Gallardo, Puerto Natales Ad.",69.0,-51.66722222,-72.52888889,2024-03-21,2024-04-20,
87007,La Quiaca Obs.,3459.0,-22.103337,-65.600762,2024-03-21,2024-04-20,13.7
87121,Tucumán Aero,450.0,-26.837299,-65.108434,2024-03-21,2024-04-20,45.9
87374,Paraná Aero,78.0,-31.790362,-60.484193,2024-03-21,2024-04-20,218.6
87563,Las Flores Aero,38.0,-36.041486,-59.137108,2024-03-21,2024-04-20,112.9
87640,Bolívar Aero,94.0,-36.186382,-61.072651,2024-03-21,2024-04-20,231.4
87934,Río Grande (BA),22.0,-53.78022,-67.758746,2024-03-21,2024-04-20,42.699999999999996
86246,Aeropuerto “Guaraní” Minga Guazú ,247.0,-25.46,-54.84,2024-03-21,2024-04-20,146.1
85418,Diego Aracena Iquique Ap.,52.0,-20.53972222,-70.17861111,2024-03-21,2024-04-20,0.0
85432,"El Loa, Calama Ad.",2293.0,-22.49527778,-69.904444,2024-03-21,2024-04-20,1.8
85439,Toconao,2495.0,-23.18611111,-68.00555556,2024-03-21,2024-04-20,2.5
85442,Cerro Moreno Antofagasta Ap.,113.0,-23.45027778,-70.44111111,2024-03-21,2024-04-20,0.4
85455,Taltal Campbell,37.0,-25.41111111,-70.48416667,2024-03-21,2024-04-20,0.4
85467,"Desierto de Atacama, Caldera Ad.",204.0,-27.26388889,-70.77416667,2024-03-21,2024-04-20,6.6000000000000005
85488,"La Florida, La Serena Ad.",142.0,-29.914444,-71.206666,2024-03-21,2024-04-20,0.6000000000000001
85560,"Rodelillo, Ad.",330.0,-33.03667,-71.53417,2024-03-21,2024-04-20,2.1
85569,El Paico,275.0,-33.70638889,-71.00805556,2024-03-21,2024-04-20,0.0
85571,Lo Prado Cerro San Francisco,1068.0,-33.45805556,-70.94861111,2024-03-21,2024-04-20,
85574,Pudahuel Santiago,482.0,-33.39194444,-70.79444444,2024-03-21,2024-04-20,0.1
85577,"Quinta Normal, Santiago",520.0,-33.444999,-70.682777,2024-03-21,2024-04-20,0.2
85580,"Eulogio Sánchez, Tobalaba Ad.",650.0,-33.45444,-70.547777,2024-03-21,2024-04-20,1.0
85585,"Juan Fernández, Estación Meteorológica.",40.0,-33.63583,-78.83306,2024-03-21,2024-04-20,116.9
85586,"Santo Domingo, Ad.",75.0,-33.656111,-71.613333,2024-03-21,2024-04-20,0.4
85593,San José Guayacán,928.0,-33.61527778,-70.35055556,2024-03-21,2024-04-20,2.0
85629,"General Freire, Curicó Ad.",225.0,-34.96638889,-71.21666667,2024-03-21,2024-04-20,22.6
85672,"Bernardo O'Higgins, Chillán Ad.",151.0,-36.585833,-72.036666,2024-03-21,2024-04-20,7.8
85682,"Carriel Sur, Concepción.",12.0,-36.77916667,-73.06222222,2024-03-21,2024-04-20,10.0
85743,"Maquehue, Temuco Ad.",92.0,-38.767777,-72.631943,2024-03-21,2024-04-20,82.0
85766,"Pichoy, Valdivia Ad.",21.0,-39.65055556,-73.08083333,2024-03-21,2024-04-20,63.6
85782,"Cañal Bajo, Osorno Ad.",61.0,-40.614444,-73.0575,2024-03-21,2024-04-20,54.4
85799,El Tepual Puerto Montt Ap.,85.0,-41.447499,-73.095833,2024-03-21,2024-04-20,72.2
85831,Quellón Ad.,12.0,-43.13388889,-73.63305556,2024-03-21,2024-04-20,90.0
85832,Futaleufú Ad.,347.0,-43.18888889,-71.8525,2024-03-21,2024-04-20,122.2
85862,Puerto Aysén Ad.,10.0,-45.39611111,-72.66388889,2024-03-21,2024-04-20,182.9
85864,"Teniente Vidal, Coyhaique Ad.",310.0,-45.59388889,-72.10861111,2024-03-21,2024-04-20,103.8
85874,Balmaceda Ad.,520.0,-45.9125,-71.69333333,2024-03-21,2024-04-20,32.2
85886,Chile Chico Ad.,306.0,-46.58083333,-71.69277778,2024-03-21,2024-04-20,
85892,Lord Cochrane Ad.,204.0,-47.24388889,-72.58638889,2024-03-21,2024-04-20,
85920,"Teniente Gallardo, Puerto Natales Ad.",69.0,-51.66722222,-72.52888889,2024-03-21,2024-04-20,38.4
85934,"Carlos Ibañez, Punta Arenas Ap.",38.0,-53.00333333,-70.845,2024-03-21,2024-04-20,46.2
85940,"Fuentes Martínez, Porvenir Ad.",25.0,-53.25361,-70.326,2024-03-21,2024-04-20,63.5
85968,"Guardia Marina Zañartu, Pto Williams Ad.",10.0,-54.93166667,-67.61555556,2024-03-21,2024-04-20,46.4
90000001,Las Brujas,32.0,-34.6719444444444,-56.34,2024-03-21,2024-04-20,93.3
90000002,La Estanzuela,72.0,-34.3372222222222,-57.6922222222222,2024-03-21,2024-04-20,128.4
90000003,Tacuarembó,115.0,-31.7088888888889,-55.8266666666667,2024-03-21,2024-04-20,182.6
90000004,Treinta y Tres,22.0,-33.275,-54.1722222222222,2024-03-21,2024-04-20,100.7
90000005,Salto Grande,47.0,-31.2727777777778,-57.8908333333333,2024-03-21,2024-04-20,135.8
82989,AGUA BRANCA,603.42,-9.26472222,-37.93805555,2024-03-21,2024-04-20,
83249,ALAGOINHAS,129.78,-12.1486111,-38.42527777,2024-03-21,2024-04-20,
83007,ALTO DA BOA VISTA,353.81,-22.96583333,-43.27944443,2024-03-21,2024-04-20,273.0
82970,ALTO PARNAIBA,285.05,-9.10833333,-45.9486111,2024-03-21,2024-04-20,
83096,ARACAJU,3.68,-10.9525,-37.05444444,2024-03-21,2024-04-20,
83442,ARACUAI,317.67,-16.8489,-42.060911,2024-03-21,2024-04-20,26.4
82890,ARCOVERDE,683.91,-8.433537,-37.055365,2024-03-21,2024-04-20,96.1
83384,ARINOS,523.0,-15.915229,-46.10712,2024-03-21,2024-04-20,29.799999999999997
83049,AVELAR (P.DO ALFERES),513.25,-22.34749999,-43.41777777,2024-03-21,2024-04-20,
83179,BARRA,407.5,-11.084858,-43.138998,2024-03-21,2024-04-20,
83236,BARREIRAS,447.51,-12.155843,-45.008269,2024-03-21,2024-04-20,96.5
83557,BOA ESPERANCA,128.95,-18.53722221,-40.27222221,2024-03-21,2024-04-20,
83288,BOM JESUS DA LAPA,447.75,-13.251097,-43.405365,2024-03-21,2024-04-20,
82975,BOM JESUS DO PIAUI,330.6,-9.06611111,-44.36527777,2024-03-21,2024-04-20,
82886,CABROBO,342.78,-8.50388888,-39.31527777,2024-03-21,2024-04-20,
83946,CAMBARA DO SUL,1015.97,-29.049139,-50.149631,2024-03-21,2024-04-20,
83698,CAMPOS,15.19,-21.74249999,-41.33277777,2024-03-21,2024-04-20,
83270,CANARANA,430.0,-13.47083332,-52.2711111,2024-03-21,2024-04-20,
83398,CANAVIEIRAS,4.71,-15.673259,-38.961051,2024-03-21,2024-04-20,
82976,CARACOL,515.3,-9.28583333,-43.32444443,2024-03-21,2024-04-20,
83592,CARATINGA,609.56,-19.735765,-42.137222,2024-03-21,2024-04-20,94.9
83485,CARBONITA,765.37,-17.533008,-43.012091,2024-03-21,2024-04-20,
83408,CARINHANHA,455.25,-14.29749999,-43.77138888,2024-03-21,2024-04-20,
83192,CIPO,143.53,-11.10138888,-38.52416666,2024-03-21,2024-04-20,26.7
82861,CONCEICAO DO ARAGUAIA,179.02,-8.25916666,-49.26388888,2024-03-21,2024-04-20,
83718,CORDEIRO,516.72,-22.02222221,-42.36444444,2024-03-21,2024-04-20,116.6
83286,CORRENTINA,551.69,-13.332407,-44.617374,2024-03-21,2024-04-20,57.0
83222,CRUZ DAS ALMAS,219.69,-12.67527777,-39.08972221,2024-03-21,2024-04-20,181.7
83536,CURVELO,668.26,-18.747435,-44.454654,2024-03-21,2024-04-20,
83635,DIVINOPOLIS,787.42,-20.173283,-44.874742,2024-03-21,2024-04-20,
83221,FEIRA DE SANTANA,229.52,-12.1961111,-38.96722221,2024-03-21,2024-04-20,
83334,FORMOSO,854.6,-14.949727,-46.235795,2024-03-21,2024-04-20,167.3
82893,GARANHUNS,827.78,-8.91083333,-36.49333333,2024-03-21,2024-04-20,
83446,GUARATINGA,197.88,-16.58081,-39.783182,2024-03-21,2024-04-20,230.79999999999998
83632,IBIRITE,822.08,-20.016563,-44.084716,2024-03-21,2024-04-20,
83114,IGUABA GRANDE,5.57,-22.84694444,-42.18555555,2024-03-21,2024-04-20,
83182,IRECE,747.22,-11.31138888,-41.85861111,2024-03-21,2024-04-20,
83195,ITABAIANINHA,205.59,-11.272334,-37.794973,2024-03-21,2024-04-20,
83695,ITAPERUNA,123.59,-21.20388888,-41.90555555,2024-03-21,2024-04-20,
83292,ITUACU,534.44,-13.812876,-41.299852,2024-03-21,2024-04-20,
83186,JACOBINA,486.37,-11.17277777,-40.53416666,2024-03-21,2024-04-20,
83386,JANUARIA,480.0,-15.448054,-44.366321,2024-03-21,2024-04-20,80.5
83452,JURAMENTO,655.59,-16.775057,-43.667085,2024-03-21,2024-04-20,
83916,LAGOA VERMELHA,833.73,-28.22249999,-51.51277777,2024-03-21,2024-04-20,
83687,LAVRAS,916.19,-21.22613,-44.979666,2024-03-21,2024-04-20,89.5
83242,LENCOIS,438.09,-12.557854,-41.388808,2024-03-21,2024-04-20,115.1
82994,MACEIO,84.12,-9.55138888,-35.77083332,2024-03-21,2024-04-20,
83214,MATUPA,272.0,-10.19166666,-54.9461111,2024-03-21,2024-04-20,
83437,MONTES CLAROS,645.87,-16.686333,-43.843759,2024-03-21,2024-04-20,93.5
83184,MORRO DO CHAPEU,1001.66,-11.547494,-41.151165,2024-03-21,2024-04-20,75.3
83013,MUNIZ FREIRE,530.0,-20.46611111,-41.41222222,2024-03-21,2024-04-20,331.7
83319,NOVA XAV.(XAVANTINA),305.33,-14.697917,-52.350226,2024-03-21,2024-04-20,326.8
83364,PADRE RICARDO REMETTER,140.0,-15.776,-56.072,2024-03-21,2024-04-20,242.2
83033,PALMAS,291.68,-10.190897,-48.301822,2024-03-21,2024-04-20,256.3
82992,PALMEIRA DOS INDIOS,277.98,-9.42027777,-36.62027777,2024-03-21,2024-04-20,
82990,PAO DE ACUCAR,20.86,-9.74916666,-37.43083332,2024-03-21,2024-04-20,62.0
83737,PASSA QUATRO,919.55,-22.382805,-44.966902,2024-03-21,2024-04-20,
82882,PAULISTANA,376.0,-8.13222221,-41.14305555,2024-03-21,2024-04-20,
83393,PEDRA AZUL,647.97,-16.00956,-41.281027,2024-03-21,2024-04-20,
82863,PEDRO AFONSO,189.53,-8.9686111,-48.17722221,2024-03-21,2024-04-20,243.0
83228,PEIXE,252.24,-12.01527777,-48.54499999,2024-03-21,2024-04-20,185.8
83985,PELOTAS,12.01,-31.802527,-52.406868,2024-03-21,2024-04-20,
82983,PETROLINA,372.54,-9.3886111,-40.52333332,2024-03-21,2024-04-20,119.3
82996,PORTO DE PEDRAS,42.21,-9.162012,-35.299881,2024-03-21,2024-04-20,
83064,PORTO NACIONAL,243.28,-10.71083333,-48.40638888,2024-03-21,2024-04-20,200.3
83358,POXOREO,374.35,-15.82749999,-54.39555555,2024-03-21,2024-04-20,
83097,PROPRIA,18.46,-10.21376,-36.842198,2024-03-21,2024-04-20,140.0
83801,REALENGO,32.1,-22.87138888,-43.42499999,2024-03-21,2024-04-20,
82900,RECIFE (CURADO),11.3,-8.05916666,-34.95916666,2024-03-21,2024-04-20,
82979,REMANSO,397.39,-9.625699,-42.077217,2024-03-21,2024-04-20,
83738,RESENDE,439.89,-22.45111111,-44.44472221,2024-03-21,2024-04-20,64.1
82915,RIO BRANCO,160.71,-9.95916666,-67.86888888,2024-03-21,2024-04-20,
83441,SALINAS,476.07,-16.154862,-42.284921,2024-03-21,2024-04-20,28.4
83229,SALVADOR (ONDINA),47.35,-13.00583333,-38.50583333,2024-03-21,2024-04-20,639.4
83696,SANTA MARIA MADALENA,640.0,-21.96805554,-42.00305555,2024-03-21,2024-04-20,
83805,SANTO ANTONIO DE PADUA,91.9,-21.53722221,-42.16083333,2024-03-21,2024-04-20,103.2
82879,SAO JOAO DO PIAUI,237.02,-8.365,-42.25027777,2024-03-21,2024-04-20,
83550,SAO MATEUS,39.37,-18.71388888,-39.84888888,2024-03-21,2024-04-20,
83004,SAO PAULO (IAG),800.0,-23.65,-46.61999999,2024-03-21,2024-04-20,80.0
83363,SAO VICENTE,786.99,-15.82305554,-55.41888888,2024-03-21,2024-04-20,
83190,SERRINHA,362.39,-11.66805554,-39.00194444,2024-03-21,2024-04-20,
83851,SOROCABA,597.58,-23.47999999,-47.42666666,2024-03-21,2024-04-20,
83076,STa. R. DE CASSIA (IBIPETUBA),450.01,-11.002765,-44.52496,2024-03-21,2024-04-20,
83235,TAGUATINGA,604.88,-12.40222222,-46.43833333,2024-03-21,2024-04-20,191.3
82807,TARAUACA,172.27,-8.16027777,-70.7686111,2024-03-21,2024-04-20,166.4
83744,TERESOPOLIS,879.69,-22.41722221,-42.97249999,2024-03-21,2024-04-20,178.5
83428,UNAI,595.59,-16.366268,-46.889321,2024-03-21,2024-04-20,174.6
83648,VITORIA,18.06,-20.31583333,-40.31722221,2024-03-21,2024-04-20,171.3
83344,VITORIA DA CONQUISTA,879.47,-14.88638888,-40.80138888,2024-03-21,2024-04-20,54.0
83309,Diamantino,274.02,-14.40611111,-56.44694444,2024-03-21,2024-04-20,330.1
83332,Posse,830.35,-14.08907,-46.36653,2024-03-21,2024-04-20,246.0
83361,Cuiabá,157.7,-15.61999999,-56.10888888,2024-03-21,2024-04-20,145.4
83368,Aragarças,327.03,-15.9025,-52.24527777,2024-03-21,2024-04-20,
83376,Pirenópolis,766.92,-15.85472222,-48.96611111,2024-03-21,2024-04-20,323.3
83377,Brasília,1161.42,-15.78972221,-47.92583332,2024-03-21,2024-04-20,237.1
83379,Formosa,938.68,-15.54916666,-47.33888888,2024-03-21,2024-04-20,181.29999999999998
83464,Jataí,669.84,-17.9236111,-51.71749999,2024-03-21,2024-04-20,533.2
83470,Rio Verde,780.04,-17.78527777,-50.96472222,2024-03-21,2024-04-20,491.7
83479,Paracatu,711.41,-17.24416666,-46.88166666,2024-03-21,2024-04-20,
83488,Itamarandiba,919.37,-17.859776,-42.852647,2024-03-21,2024-04-20,
83498,Caravelas,6.05,-17.73944444,-39.25861111,2024-03-21,2024-04-20,85.0
83522,Ipameri,778.14,-17.724527,-48.171916,2024-03-21,2024-04-20,177.0
83526,Catalão,857.98,-18.17027777,-47.95805555,2024-03-21,2024-04-20,247.5
83565,Paranaíba,429.62,-19.66361111,-51.19138888,2024-03-21,2024-04-20,160.8
83579,Araxá,1018.28,-19.60555555,-46.94972221,2024-03-21,2024-04-20,204.3
83587,Belo Horizonte,915.47,-19.934382,-43.952292,2024-03-21,2024-04-20,188.3
83589,Conceição do Mato Dentro,663.02,-19.020355,-43.433948,2024-03-21,2024-04-20,
83630,Franca,1003.55,-20.584314,-47.382427,2024-03-21,2024-04-20,162.3
83639,Caparaó,836.25,-20.526119,-41.90913,2024-03-21,2024-04-20,
83669,São Simão,620.02,-21.461019,-47.579512,2024-03-21,2024-04-20,
83676,Catanduva,570.34,-21.122377,-48.947513,2024-03-21,2024-04-20,
83683,Machado,892.44,-21.681466,-45.940819,2024-03-21,2024-04-20,
83692,Juiz de Fora,936.9,-21.76999999,-43.36444444,2024-03-21,2024-04-20,62.5
83736,São Lourenço,930.65,-22.126273,-45.043327,2024-03-21,2024-04-20,104.2
83766,Londrina,566.46,-23.32555554,-51.14166666,2024-03-21,2024-04-20,
83767,Maringá,542.0,-23.4,-51.91666666,2024-03-21,2024-04-20,132.0
83781,"São Paulo (Mir, de Santana)",785.16,-23.49638888,-46.61999999,2024-03-21,2024-04-20,83.60000000000001
83813,Castro,994.68,-24.78694444,-49.99916666,2024-03-21,2024-04-20,
83836,Irati,881.69,-25.502846,-50.637609,2024-03-21,2024-04-20,151.1
83844,Paranaguá,4.5,-25.5361111,-48.52833332,2024-03-21,2024-04-20,
83907,São Luiz Gonzaga,245.49,-28.41722221,-54.9625,2024-03-21,2024-04-20,
83912,Cruz Alta,475.52,-28.6261111,-53.61388888,2024-03-21,2024-04-20,
83914,Passo Fundo,684.05,-28.2286111,-52.41194444,2024-03-21,2024-04-20,191.7
83919,Bom Jesus,1048.59,-28.66944443,-50.44194444,2024-03-21,2024-04-20,
83936,Santa Maria,103.1,-29.724796,-53.720465,2024-03-21,2024-04-20,236.4
83942,Caxias do Sul,750.16,-29.1961111,-51.18638888,2024-03-21,2024-04-20,129.1
83948,Torres,8.47,-29.35027777,-49.73333333,2024-03-21,2024-04-20,
83964,Encruzilhada do Sul,428.52,-30.54305555,-52.52472221,2024-03-21,2024-04-20,
83967,Porto Alegre,41.18,-30.05361111,-51.17472221,2024-03-21,2024-04-20,76.1
